[
  {"id":"mq001","island":"mq","name":"Plage des Salines","commune":"Sainte-Anne","lat":14.4165,"lng":-60.87,"status":"moderate","afai":0.42,"kids":true,"snorkel":false,"parking":true,"drive":52},
  {"id":"mq002","island":"mq","name":"Anse Caritan","commune":"Sainte-Anne","lat":14.425,"lng":-60.878,"status":"clean","afai":0.17,"kids":true,"snorkel":true,"parking":true,"drive":48},
  {"id":"mq003","island":"mq","name":"Anse Meunier","commune":"Sainte-Anne","lat":14.418,"lng":-60.862,"status":"clean","afai":0.12,"kids":true,"snorkel":true,"parking":false,"drive":50},
  {"id":"mq004","island":"mq","name":"Plage du Bourg (Sainte-Anne)","commune":"Sainte-Anne","lat":14.432,"lng":-60.885,"status":"moderate","afai":0.38,"kids":true,"snorkel":false,"parking":true,"drive":48},
  {"id":"mq005","island":"mq","name":"Anse Trabaud","commune":"Sainte-Anne","lat":14.411,"lng":-60.852,"status":"avoid","afai":0.78,"kids":false,"snorkel":false,"parking":true,"drive":52},
  {"id":"mq006","island":"mq","name":"Anse Macabou","commune":"Sainte-Anne","lat":14.408,"lng":-60.844,"status":"avoid","afai":0.72,"kids":false,"snorkel":false,"parking":false,"drive":55},
  {"id":"mq007","island":"mq","name":"Anse Michel","commune":"Sainte-Anne","lat":14.435,"lng":-60.878,"status":"clean","afai":0.15,"kids":true,"snorkel":true,"parking":true,"drive":46},
  {"id":"mq008","island":"mq","name":"Plage du Marin","commune":"Le Marin","lat":14.47,"lng":-60.872,"status":"clean","afai":0.18,"kids":true,"snorkel":false,"parking":true,"drive":42},
  {"id":"mq009","island":"mq","name":"Anse Figuier","commune":"Rivière-Pilote","lat":14.466,"lng":-60.848,"status":"moderate","afai":0.4,"kids":true,"snorkel":true,"parking":false,"drive":40},
  {"id":"mq010","island":"mq","name":"Anse à l'Âne","commune":"Les Trois-Îlets","lat":14.533,"lng":-61.025,"status":"clean","afai":0.14,"kids":true,"snorkel":false,"parking":true,"drive":22},
  {"id":"mq011","island":"mq","name":"Anse Mitan","commune":"Les Trois-Îlets","lat":14.55,"lng":-61.045,"status":"clean","afai":0.17,"kids":true,"snorkel":false,"parking":true,"drive":18},
  {"id":"mq012","island":"mq","name":"Anse Noire","commune":"Les Anses-d'Arlet","lat":14.493,"lng":-61.064,"status":"clean","afai":0.08,"kids":true,"snorkel":true,"parking":false,"drive":28},
  {"id":"mq013","island":"mq","name":"Anse Dufour","commune":"Les Anses-d'Arlet","lat":14.495,"lng":-61.066,"status":"clean","afai":0.11,"kids":true,"snorkel":true,"parking":false,"drive":28},
  {"id":"mq014","island":"mq","name":"Grande Anse d'Arlet","commune":"Les Anses-d'Arlet","lat":14.505,"lng":-61.072,"status":"clean","afai":0.12,"kids":true,"snorkel":true,"parking":true,"drive":25},
  {"id":"mq015","island":"mq","name":"Petite Anse d'Arlet","commune":"Les Anses-d'Arlet","lat":14.512,"lng":-61.07,"status":"clean","afai":0.1,"kids":true,"snorkel":true,"parking":false,"drive":26},
  {"id":"mq016","island":"mq","name":"Plage du Diamant","commune":"Le Diamant","lat":14.472,"lng":-61.027,"status":"moderate","afai":0.42,"kids":false,"snorkel":false,"parking":true,"drive":32},
  {"id":"mq017","island":"mq","name":"Anse Cafard","commune":"Le Diamant","lat":14.464,"lng":-61.014,"status":"moderate","afai":0.38,"kids":false,"snorkel":false,"parking":true,"drive":33},
  {"id":"mq018","island":"mq","name":"Petite Anse du Diamant","commune":"Le Diamant","lat":14.476,"lng":-61.035,"status":"moderate","afai":0.35,"kids":true,"snorkel":false,"parking":true,"drive":31},
  {"id":"mq019","island":"mq","name":"Anse Gros Raisins","commune":"Sainte-Luce","lat":14.482,"lng":-60.921,"status":"clean","afai":0.16,"kids":true,"snorkel":true,"parking":false,"drive":38},
  {"id":"mq020","island":"mq","name":"Plage de Sainte-Luce","commune":"Sainte-Luce","lat":14.489,"lng":-60.925,"status":"clean","afai":0.19,"kids":true,"snorkel":false,"parking":true,"drive":36},
  {"id":"mq021","island":"mq","name":"Anse Corps de Garde","commune":"Sainte-Luce","lat":14.478,"lng":-60.918,"status":"clean","afai":0.14,"kids":true,"snorkel":true,"parking":false,"drive":39},
  {"id":"mq022","island":"mq","name":"Pointe Borgnesse","commune":"Rivière-Pilote","lat":14.462,"lng":-60.898,"status":"moderate","afai":0.45,"kids":false,"snorkel":false,"parking":false,"drive":42},
  {"id":"mq023","island":"mq","name":"Plage de la Française","commune":"Fort-de-France","lat":14.604,"lng":-61.066,"status":"clean","afai":0.2,"kids":true,"snorkel":false,"parking":true,"drive":8},
  {"id":"mq024","island":"mq","name":"Anse Madame","commune":"Schoelcher","lat":14.6276,"lng":-61.1207,"status":"clean","afai":0.14,"kids":true,"snorkel":false,"parking":true,"drive":12},
  {"id":"mq025","island":"mq","name":"Plage de Schœlcher","commune":"Schœlcher","lat":14.628,"lng":-61.085,"status":"clean","afai":0.18,"kids":true,"snorkel":false,"parking":true,"drive":10},
  {"id":"mq026","island":"mq","name":"Anse Collat","commune":"Schœlcher","lat":14.635,"lng":-61.092,"status":"clean","afai":0.16,"kids":true,"snorkel":false,"parking":true,"drive":11},
  {"id":"mq027","island":"mq","name":"Grande Anse du Carbet","commune":"Le Carbet","lat":14.696,"lng":-61.167,"status":"clean","afai":0.12,"kids":true,"snorkel":true,"parking":true,"drive":28},
  {"id":"mq028","island":"mq","name":"Anse Turin","commune":"Le Carbet","lat":14.693,"lng":-61.162,"status":"clean","afai":0.1,"kids":true,"snorkel":true,"parking":true,"drive":27},
  {"id":"mq029","island":"mq","name":"Plage de Saint-Pierre","commune":"Saint-Pierre","lat":14.735,"lng":-61.174,"status":"clean","afai":0.15,"kids":true,"snorkel":true,"parking":true,"drive":32},
  {"id":"mq030","island":"mq","name":"Anse Belleville","commune":"Le Prêcheur","lat":14.795,"lng":-61.208,"status":"clean","afai":0.11,"kids":false,"snorkel":false,"parking":false,"drive":45},
  {"id":"gp001","island":"gp","name":"Plage de Saint-François","commune":"Saint-François","lat":16.256,"lng":-61.27,"status":"moderate","afai":0.35,"kids":true,"snorkel":true,"parking":true,"drive":48},
  {"id":"gp002","island":"gp","name":"Plage des Raisins Clairs","commune":"Saint-François","lat":16.261,"lng":-61.262,"status":"clean","afai":0.22,"kids":true,"snorkel":true,"parking":true,"drive":46},
  {"id":"gp003","island":"gp","name":"La Datcha","commune":"Saint-François","lat":16.248,"lng":-61.275,"status":"clean","afai":0.18,"kids":true,"snorkel":false,"parking":true,"drive":48},
  {"id":"gp004","island":"gp","name":"Anse à la Gourde","commune":"Saint-François","lat":16.242,"lng":-61.258,"status":"clean","afai":0.14,"kids":true,"snorkel":true,"parking":true,"drive":50},
  {"id":"gp005","island":"gp","name":"Pointe des Châteaux","commune":"Saint-François","lat":16.231,"lng":-61.178,"status":"moderate","afai":0.38,"kids":false,"snorkel":false,"parking":true,"drive":52},
  {"id":"gp006","island":"gp","name":"Anse Tarare","commune":"Saint-François","lat":16.237,"lng":-61.195,"status":"clean","afai":0.12,"kids":false,"snorkel":true,"parking":false,"drive":51},
  {"id":"gp008","island":"gp","name":"Plage Bois Jolan","commune":"Sainte-Anne","lat":16.227,"lng":-61.337,"status":"clean","afai":0.2,"kids":true,"snorkel":false,"parking":true,"drive":38},
  {"id":"gp009","island":"gp","name":"Plage de la Caravelle","commune":"Sainte-Anne","lat":16.226,"lng":-61.368,"status":"clean","afai":0.14,"kids":true,"snorkel":true,"parking":true,"drive":38},
  {"id":"gp010","island":"gp","name":"Plage de Sainte-Anne","commune":"Sainte-Anne","lat":16.228,"lng":-61.38,"status":"clean","afai":0.22,"kids":true,"snorkel":false,"parking":true,"drive":38},
  {"id":"gp012","island":"gp","name":"Plage du Gosier","commune":"Le Gosier","lat":16.21,"lng":-61.495,"status":"clean","afai":0.18,"kids":true,"snorkel":true,"parking":true,"drive":12},
  {"id":"gp014","island":"gp","name":"Plage de Bas-du-Fort","commune":"Pointe-à-Pitre","lat":16.238,"lng":-61.52,"status":"moderate","afai":0.35,"kids":true,"snorkel":false,"parking":true,"drive":8},
  {"id":"gp015","island":"gp","name":"Porte d'Enfer","commune":"Anse-Bertrand","lat":16.48,"lng":-61.481,"status":"avoid","afai":0.7,"kids":false,"snorkel":false,"parking":true,"drive":55},
  {"id":"gp017","island":"gp","name":"Plage du Souffleur","commune":"Le Moule","lat":16.417,"lng":-61.535,"status":"moderate","afai":0.44,"kids":false,"snorkel":false,"parking":true,"drive":42},
  {"id":"gp021","island":"gp","name":"Plage de Grande Anse","commune":"Bouillante","lat":15.98,"lng":-61.658,"status":"clean","afai":0.15,"kids":true,"snorkel":true,"parking":true,"drive":45},
  {"id":"gp024","island":"gp","name":"Plage de Deshaies","commune":"Deshaies","lat":16.307,"lng":-61.796,"status":"clean","afai":0.11,"kids":true,"snorkel":true,"parking":true,"drive":55},
  {"id":"gp025","island":"gp","name":"La Grande Anse (Deshaies)","commune":"Deshaies","lat":16.313,"lng":-61.806,"status":"clean","afai":0.1,"kids":true,"snorkel":true,"parking":true,"drive":56},
  {"id":"gp031","island":"gp","name":"Plage de Malendure","commune":"Bouillante","lat":16.128,"lng":-61.777,"status":"clean","afai":0.12,"kids":true,"snorkel":true,"parking":true,"drive":42},
  {"id":"gp033","island":"gp","name":"Petite Plage Malendure","commune":"Bouillante","lat":16.1784,"lng":-61.7902,"status":"clean","afai":0.11,"kids":true,"snorkel":true,"parking":true,"drive":42},
  {"id":"gp044","island":"gp","name":"Plage de Pompierre","commune":"Terre-de-Haut (Les Saintes)","lat":15.864,"lng":-61.587,"status":"clean","afai":0.08,"kids":true,"snorkel":true,"parking":false,"drive":60},
  {"id":"gp045","island":"gp","name":"Plage Pain de Sucre","commune":"Terre-de-Haut (Les Saintes)","lat":15.873,"lng":-61.578,"status":"clean","afai":0.07,"kids":true,"snorkel":true,"parking":false,"drive":60}
]
