[
  {
    "id": "mq001",
    "island": "mq",
    "name": "Plage des Salines",
    "commune": "Sainte-Anne",
    "lat": 14.3958521,
    "lng": -60.8689802,
    "status": "moderate",
    "afai": 0.42,
    "kids": true,
    "snorkel": false,
    "parking": true,
    "drive": 52,
    "slug": "plage-des-salines",
    "webcam": {
      "type": "link",
      "url": "https://www.skylinewebcams.com/en/webcam/martinique/martinique/sainte-anne/baie-sainte-anne.html",
      "label": "Baie de Sainte-Anne",
      "provider": "SkylineWebcams"
    }
  },
  {
    "id": "mq002",
    "island": "mq",
    "name": "Anse Caritan",
    "commune": "Sainte-Anne",
    "lat": 14.4260922,
    "lng": -60.8876691,
    "status": "clean",
    "afai": 0.17,
    "kids": true,
    "snorkel": true,
    "parking": true,
    "drive": 48,
    "slug": "anse-caritan"
  },
  {
    "id": "mq003",
    "island": "mq",
    "name": "Anse Meunier",
    "commune": "Sainte-Anne",
    "lat": 14.4144971,
    "lng": -60.8872148,
    "status": "clean",
    "afai": 0.12,
    "kids": true,
    "snorkel": true,
    "parking": false,
    "drive": 50,
    "slug": "anse-meunier"
  },
  {
    "id": "mq004",
    "island": "mq",
    "name": "Plage du Bourg (Sainte-Anne)",
    "commune": "Sainte-Anne",
    "lat": 14.4304809,
    "lng": -60.8849519,
    "status": "moderate",
    "afai": 0.38,
    "kids": true,
    "snorkel": false,
    "parking": true,
    "drive": 48,
    "slug": "plage-du-bourg-sainte-anne"
  },
  {
    "id": "mq005",
    "island": "mq",
    "name": "Anse Trabaud",
    "commune": "Sainte-Anne",
    "lat": 14.4101296,
    "lng": -60.8482068,
    "status": "avoid",
    "afai": 0.78,
    "kids": false,
    "snorkel": false,
    "parking": true,
    "drive": 52,
    "slug": "anse-trabaud"
  },
  {
    "id": "mq006",
    "island": "mq",
    "name": "Anse Macabou",
    "commune": "Sainte-Anne",
    "lat": 14.505925,
    "lng": -60.8235499,
    "status": "avoid",
    "afai": 0.72,
    "kids": false,
    "snorkel": false,
    "parking": false,
    "drive": 55,
    "slug": "anse-macabou"
  },
  {
    "id": "mq007",
    "island": "mq",
    "name": "Anse Michel",
    "commune": "Sainte-Anne",
    "lat": 14.437773,
    "lng": -60.8258012,
    "status": "clean",
    "afai": 0.15,
    "kids": true,
    "snorkel": true,
    "parking": true,
    "drive": 46,
    "slug": "anse-michel"
  },
  {
    "id": "mq008",
    "island": "mq",
    "name": "Plage du Marin",
    "commune": "Le Marin",
    "lat": 14.4511181,
    "lng": -60.8835717,
    "status": "clean",
    "afai": 0.18,
    "kids": true,
    "snorkel": false,
    "parking": true,
    "drive": 42,
    "slug": "plage-du-marin"
  },
  {
    "id": "mq009",
    "island": "mq",
    "name": "Anse Figuier",
    "commune": "Rivière-Pilote",
    "lat": 14.4605782,
    "lng": -60.9104676,
    "status": "moderate",
    "afai": 0.4,
    "kids": true,
    "snorkel": true,
    "parking": false,
    "drive": 40,
    "slug": "anse-figuier"
  },
  {
    "id": "mq010",
    "island": "mq",
    "name": "Anse à l'Âne",
    "commune": "Les Trois-Îlets",
    "lat": 14.5410671,
    "lng": -61.0657633,
    "status": "clean",
    "afai": 0.14,
    "kids": true,
    "snorkel": false,
    "parking": true,
    "drive": 22,
    "slug": "anse-a-l-ane"
  },
  {
    "id": "mq011",
    "island": "mq",
    "name": "Anse Mitan",
    "commune": "Les Trois-Îlets",
    "lat": 14.5522593,
    "lng": -61.0552056,
    "status": "clean",
    "afai": 0.17,
    "kids": true,
    "snorkel": false,
    "parking": true,
    "drive": 18,
    "slug": "anse-mitan"
  },
  {
    "id": "mq012",
    "island": "mq",
    "name": "Anse Noire",
    "commune": "Les Anses-d'Arlet",
    "lat": 14.5277232,
    "lng": -61.0873771,
    "status": "clean",
    "afai": 0.08,
    "kids": true,
    "snorkel": true,
    "parking": false,
    "drive": 28,
    "slug": "anse-noire"
  },
  {
    "id": "mq013",
    "island": "mq",
    "name": "Anse Dufour",
    "commune": "Les Anses-d'Arlet",
    "lat": 14.5256583,
    "lng": -61.08949844,
    "status": "clean",
    "afai": 0.11,
    "kids": true,
    "snorkel": true,
    "parking": false,
    "drive": 28,
    "slug": "anse-dufour"
  },
  {
    "id": "mq014",
    "island": "mq",
    "name": "Grande Anse d'Arlet",
    "commune": "Les Anses-d'Arlet",
    "lat": 14.5027854,
    "lng": -61.0856311,
    "status": "clean",
    "afai": 0.12,
    "kids": true,
    "snorkel": true,
    "parking": true,
    "drive": 25,
    "slug": "grande-anse-d-arlet"
  },
  {
    "id": "mq015",
    "island": "mq",
    "name": "Petite Anse d'Arlet",
    "commune": "Les Anses-d'Arlet",
    "lat": 14.469138,
    "lng": -61.071158,
    "status": "clean",
    "afai": 0.1,
    "kids": true,
    "snorkel": true,
    "parking": false,
    "drive": 26,
    "slug": "petite-anse-d-arlet"
  },
  {
    "id": "mq016",
    "island": "mq",
    "name": "Plage du Diamant",
    "commune": "Le Diamant",
    "lat": 14.4758027,
    "lng": -61.0314046,
    "status": "moderate",
    "afai": 0.42,
    "kids": false,
    "snorkel": false,
    "parking": true,
    "drive": 32,
    "slug": "plage-du-diamant"
  },
  {
    "id": "mq017",
    "island": "mq",
    "name": "Anse Cafard",
    "commune": "Le Diamant",
    "lat": 14.46926902,
    "lng": -61.04569643,
    "status": "moderate",
    "afai": 0.38,
    "kids": false,
    "snorkel": false,
    "parking": true,
    "drive": 33,
    "slug": "anse-cafard"
  },
  {
    "id": "mq019",
    "island": "mq",
    "name": "Anse Gros Raisins",
    "commune": "Sainte-Luce",
    "lat": 14.4658147,
    "lng": -60.9260982,
    "status": "clean",
    "afai": 0.16,
    "kids": true,
    "snorkel": true,
    "parking": false,
    "drive": 38,
    "slug": "anse-gros-raisins"
  },
  {
    "id": "mq020",
    "island": "mq",
    "name": "Plage de Sainte-Luce",
    "commune": "Sainte-Luce",
    "lat": 14.46469668,
    "lng": -60.93956904,
    "status": "clean",
    "afai": 0.19,
    "kids": true,
    "snorkel": false,
    "parking": true,
    "drive": 36,
    "slug": "plage-de-sainte-luce"
  },
  {
    "id": "mq021",
    "island": "mq",
    "name": "Anse Corps de Garde",
    "commune": "Sainte-Luce",
    "lat": 14.4656037,
    "lng": -60.9423696,
    "status": "clean",
    "afai": 0.14,
    "kids": true,
    "snorkel": true,
    "parking": false,
    "drive": 39,
    "slug": "anse-corps-de-garde"
  },
  {
    "id": "mq022",
    "island": "mq",
    "name": "Pointe Borgnesse",
    "commune": "Rivière-Pilote",
    "lat": 14.4533661,
    "lng": -60.90242566,
    "status": "moderate",
    "afai": 0.45,
    "kids": false,
    "snorkel": false,
    "parking": false,
    "drive": 42,
    "slug": "pointe-borgnesse"
  },
  {
    "id": "mq023",
    "island": "mq",
    "name": "Plage de la Française",
    "commune": "Fort-de-France",
    "lat": 14.6011133,
    "lng": -61.0674743,
    "status": "clean",
    "afai": 0.2,
    "kids": true,
    "snorkel": false,
    "parking": true,
    "drive": 8,
    "slug": "plage-de-la-francaise"
  },
  {
    "id": "mq024",
    "island": "mq",
    "name": "Anse Madame",
    "commune": "Schoelcher",
    "lat": 14.6177983,
    "lng": -61.1036302,
    "status": "clean",
    "afai": 0.14,
    "kids": true,
    "snorkel": false,
    "parking": true,
    "drive": 12,
    "slug": "anse-madame"
  },
  {
    "id": "mq025",
    "island": "mq",
    "name": "Plage de Schœlcher",
    "commune": "Schœlcher",
    "lat": 14.6147915,
    "lng": -61.1010321,
    "status": "clean",
    "afai": 0.18,
    "kids": true,
    "snorkel": false,
    "parking": true,
    "drive": 10,
    "slug": "plage-de-sch-lcher"
  },
  {
    "id": "mq026",
    "island": "mq",
    "name": "Anse Collat",
    "commune": "Schœlcher",
    "lat": 14.62183945,
    "lng": -61.10756925,
    "status": "clean",
    "afai": 0.16,
    "kids": true,
    "snorkel": false,
    "parking": true,
    "drive": 11,
    "slug": "anse-collat"
  },
  {
    "id": "mq027",
    "island": "mq",
    "name": "Grande Anse du Carbet",
    "commune": "Le Carbet",
    "lat": 14.7126886,
    "lng": -61.1840442,
    "status": "clean",
    "afai": 0.12,
    "kids": true,
    "snorkel": true,
    "parking": true,
    "drive": 28,
    "slug": "grande-anse-du-carbet"
  },
  {
    "id": "mq028",
    "island": "mq",
    "name": "Anse Turin",
    "commune": "Le Carbet",
    "lat": 14.7278647,
    "lng": -61.1803843,
    "status": "clean",
    "afai": 0.1,
    "kids": true,
    "snorkel": true,
    "parking": true,
    "drive": 27,
    "slug": "anse-turin"
  },
  {
    "id": "mq029",
    "island": "mq",
    "name": "Plage de Saint-Pierre",
    "commune": "Saint-Pierre",
    "lat": 14.7404792,
    "lng": -61.1768484,
    "status": "clean",
    "afai": 0.15,
    "kids": true,
    "snorkel": true,
    "parking": true,
    "drive": 32,
    "slug": "plage-de-saint-pierre"
  },
  {
    "id": "mq030",
    "island": "mq",
    "name": "Anse Belleville",
    "commune": "Le Prêcheur",
    "lat": 14.81472,
    "lng": -61.22875,
    "status": "clean",
    "afai": 0.11,
    "kids": false,
    "snorkel": false,
    "parking": false,
    "drive": 45,
    "slug": "anse-belleville"
  },
  {
    "id": "mq032",
    "island": "mq",
    "name": "Anse Couleuvre",
    "commune": "Le Prêcheur",
    "lat": 14.8418367,
    "lng": -61.2198551,
    "status": "clean",
    "afai": 0.2,
    "kids": true,
    "snorkel": false,
    "parking": false,
    "drive": 30,
    "slug": "anse-couleuvre"
  },
  {
    "id": "mq033",
    "island": "mq",
    "name": "Anse Céron",
    "commune": "Le Prêcheur",
    "lat": 14.8333961,
    "lng": -61.224677,
    "status": "clean",
    "afai": 0.2,
    "kids": true,
    "snorkel": false,
    "parking": false,
    "drive": 30,
    "slug": "anse-ceron"
  },
  {
    "id": "mq034",
    "island": "mq",
    "name": "Bourg de Tartane",
    "commune": "La Trinité",
    "lat": 14.7507215,
    "lng": -60.9256857,
    "status": "clean",
    "afai": 0.2,
    "kids": true,
    "snorkel": false,
    "parking": false,
    "drive": 30,
    "slug": "bourg-de-tartane"
  },
  {
    "id": "mq035",
    "island": "mq",
    "name": "Anse Bonneville",
    "commune": "La Trinité",
    "lat": 14.7542793,
    "lng": -60.9462446,
    "status": "clean",
    "afai": 0.2,
    "kids": true,
    "snorkel": false,
    "parking": false,
    "drive": 30,
    "slug": "anse-bonneville"
  },
  {
    "id": "mq036",
    "island": "mq",
    "name": "Anse L’Étang",
    "commune": "La Trinité",
    "lat": 14.765875,
    "lng": -60.9058586,
    "status": "clean",
    "afai": 0.2,
    "kids": true,
    "snorkel": false,
    "parking": false,
    "drive": 30,
    "slug": "anse-l-etang"
  },
  {
    "id": "mq037",
    "island": "mq",
    "name": "Les Raisiniers",
    "commune": "La Trinité",
    "lat": 14.7424251,
    "lng": -60.9429967,
    "status": "clean",
    "afai": 0.2,
    "kids": true,
    "snorkel": false,
    "parking": false,
    "drive": 30,
    "slug": "les-raisiniers"
  },
  {
    "id": "mq038",
    "island": "mq",
    "name": "L’Autre Bord (Trinité)",
    "commune": "La Trinité",
    "lat": 14.7704908,
    "lng": -60.9796444,
    "status": "clean",
    "afai": 0.2,
    "kids": true,
    "snorkel": false,
    "parking": false,
    "drive": 30,
    "slug": "l-autre-bord-trinite"
  },
  {
    "id": "mq039",
    "island": "mq",
    "name": "Anse Cosmy",
    "commune": "La Trinité",
    "lat": 14.7609594,
    "lng": -60.9336012,
    "status": "clean",
    "afai": 0.2,
    "kids": true,
    "snorkel": false,
    "parking": false,
    "drive": 30,
    "slug": "anse-cosmy"
  },
  {
    "id": "mq041",
    "island": "mq",
    "name": "Anse Rivière (Trinité)",
    "commune": "La Trinité",
    "lat": 14.7638007,
    "lng": -60.9116108,
    "status": "clean",
    "afai": 0.2,
    "kids": true,
    "snorkel": false,
    "parking": false,
    "drive": 30,
    "slug": "anse-riviere-trinite"
  },
  {
    "id": "mq042",
    "island": "mq",
    "name": "Baie Coco",
    "commune": "Le Robert",
    "lat": 14.6619988,
    "lng": -60.8834495,
    "status": "clean",
    "afai": 0.2,
    "kids": true,
    "snorkel": false,
    "parking": false,
    "drive": 30,
    "slug": "baie-coco"
  },
  {
    "id": "mq044",
    "island": "mq",
    "name": "Pointe Faula",
    "commune": "Le Vauclin",
    "lat": 14.5413754,
    "lng": -60.8291578,
    "status": "clean",
    "afai": 0.2,
    "kids": true,
    "snorkel": false,
    "parking": false,
    "drive": 30,
    "slug": "pointe-faula"
  },
  {
    "id": "mq046",
    "island": "mq",
    "name": "Macabou Nord",
    "commune": "Le Vauclin",
    "lat": 14.5480552,
    "lng": -60.837672,
    "status": "clean",
    "afai": 0.2,
    "kids": true,
    "snorkel": false,
    "parking": false,
    "drive": 30,
    "slug": "macabou-nord"
  },
  {
    "id": "mq047",
    "island": "mq",
    "name": "Anse Grosse Roche",
    "commune": "Le Vauclin",
    "lat": 14.4840623,
    "lng": -60.8129297,
    "status": "clean",
    "afai": 0.2,
    "kids": true,
    "snorkel": false,
    "parking": false,
    "drive": 30,
    "slug": "anse-grosse-roche"
  },
  {
    "id": "mq049",
    "island": "mq",
    "name": "Plage de Sinaï",
    "commune": "Grand’Rivière",
    "lat": 14.8711392,
    "lng": -61.1833745,
    "status": "clean",
    "afai": 0.2,
    "kids": true,
    "snorkel": false,
    "parking": false,
    "drive": 30,
    "slug": "plage-de-sinai"
  },
  {
    "id": "mq050",
    "island": "mq",
    "name": "Plage de Grand’Rivière",
    "commune": "Grand’Rivière",
    "lat": 14.8741957,
    "lng": -61.1773891,
    "status": "clean",
    "afai": 0.2,
    "kids": true,
    "snorkel": false,
    "parking": false,
    "drive": 30,
    "slug": "plage-de-grand-riviere"
  },
  {
    "id": "mq051",
    "island": "mq",
    "name": "Anse Charpentier",
    "commune": "Sainte-Marie",
    "lat": 14.8086385,
    "lng": -61.0172223,
    "status": "clean",
    "afai": 0.2,
    "kids": true,
    "snorkel": false,
    "parking": false,
    "drive": 30,
    "slug": "anse-charpentier"
  },
  {
    "id": "mq053",
    "island": "mq",
    "name": "Bourg Sainte-Marie",
    "commune": "Sainte-Marie",
    "lat": 14.7856693,
    "lng": -60.9931755,
    "status": "clean",
    "afai": 0.2,
    "kids": true,
    "snorkel": false,
    "parking": false,
    "drive": 30,
    "slug": "bourg-sainte-marie"
  },
  {
    "id": "mq055",
    "island": "mq",
    "name": "Anse Mabouya",
    "commune": "Sainte-Luce",
    "lat": 14.46801066,
    "lng": -60.95755056,
    "status": "clean",
    "afai": 0.2,
    "kids": true,
    "snorkel": false,
    "parking": false,
    "drive": 30,
    "slug": "anse-mabouya"
  },
  {
    "id": "mq057",
    "island": "mq",
    "name": "Plage des Boucaniers",
    "commune": "Sainte-Anne",
    "lat": 14.4341256,
    "lng": -60.8821104,
    "status": "clean",
    "afai": 0.2,
    "kids": true,
    "snorkel": false,
    "parking": false,
    "drive": 30,
    "slug": "plage-des-boucaniers"
  },
  {
    "id": "mq060",
    "island": "mq",
    "name": "Pointe du Bout",
    "commune": "Les Trois-Îlets",
    "lat": 14.55983072,
    "lng": -61.05279031,
    "status": "clean",
    "afai": 0.2,
    "kids": true,
    "snorkel": false,
    "parking": false,
    "drive": 30,
    "slug": "pointe-du-bout"
  },
  {
    "id": "mq062",
    "island": "mq",
    "name": "Bourg de Case-Pilote",
    "commune": "Case-Pilote",
    "lat": 14.64192241,
    "lng": -61.13879442,
    "status": "clean",
    "afai": 0.2,
    "kids": true,
    "snorkel": false,
    "parking": false,
    "drive": 30,
    "slug": "bourg-de-case-pilote"
  },
  {
    "id": "mq063",
    "island": "mq",
    "name": "Plage du Vétiver",
    "commune": "Case-Pilote",
    "lat": 14.6334662,
    "lng": -61.1309528,
    "status": "clean",
    "afai": 0.2,
    "kids": true,
    "snorkel": false,
    "parking": false,
    "drive": 30,
    "slug": "plage-du-vetiver"
  },
  {
    "id": "mq066",
    "island": "mq",
    "name": "Anse des Galets",
    "commune": "Le Prêcheur",
    "lat": 14.8011963,
    "lng": -61.2260898,
    "status": "clean",
    "afai": 0.2,
    "kids": true,
    "snorkel": false,
    "parking": false,
    "drive": 30,
    "slug": "anse-des-galets"
  },
  {
    "id": "gp001",
    "island": "gp",
    "name": "Plage de Saint-François",
    "commune": "Saint-François",
    "lat": 16.2521,
    "lng": -61.2644,
    "status": "moderate",
    "afai": 0.35,
    "kids": true,
    "snorkel": true,
    "parking": true,
    "drive": 48,
    "slug": "plage-de-saint-francois"
  },
  {
    "id": "gp002",
    "island": "gp",
    "name": "Plage des Raisins Clairs",
    "commune": "Saint-François",
    "lat": 16.2469172,
    "lng": -61.2864305,
    "status": "clean",
    "afai": 0.22,
    "kids": true,
    "snorkel": true,
    "parking": true,
    "drive": 46,
    "slug": "plage-des-raisins-clairs"
  },
  {
    "id": "gp003",
    "island": "gp",
    "name": "La Datcha",
    "commune": "Le Gosier",
    "lat": 16.2047339,
    "lng": -61.4947073,
    "status": "clean",
    "afai": 0.18,
    "kids": true,
    "snorkel": false,
    "parking": true,
    "drive": 48,
    "slug": "la-datcha"
  },
  {
    "id": "gp004",
    "island": "gp",
    "name": "Anse à la Gourde",
    "commune": "Saint-François",
    "lat": 16.2597,
    "lng": -61.214,
    "status": "clean",
    "afai": 0.14,
    "kids": true,
    "snorkel": true,
    "parking": true,
    "drive": 50,
    "slug": "anse-a-la-gourde"
  },
  {
    "id": "gp005",
    "island": "gp",
    "name": "Pointe des Châteaux",
    "commune": "Saint-François",
    "lat": 16.2467983,
    "lng": -61.1763633,
    "status": "moderate",
    "afai": 0.38,
    "kids": false,
    "snorkel": false,
    "parking": true,
    "drive": 52,
    "slug": "pointe-des-chateaux"
  },
  {
    "id": "gp006",
    "island": "gp",
    "name": "Anse Tarare",
    "commune": "Saint-François",
    "lat": 16.2564,
    "lng": -61.1986,
    "status": "clean",
    "afai": 0.12,
    "kids": false,
    "snorkel": true,
    "parking": false,
    "drive": 51,
    "slug": "anse-tarare"
  },
  {
    "id": "gp008",
    "island": "gp",
    "name": "Plage Bois Jolan",
    "commune": "Sainte-Anne",
    "lat": 16.2373343,
    "lng": -61.3491006,
    "status": "clean",
    "afai": 0.2,
    "kids": true,
    "snorkel": false,
    "parking": true,
    "drive": 38,
    "slug": "plage-bois-jolan"
  },
  {
    "id": "gp009",
    "island": "gp",
    "name": "Plage de la Caravelle",
    "commune": "Sainte-Anne",
    "lat": 16.2181,
    "lng": -61.3965,
    "status": "clean",
    "afai": 0.14,
    "kids": true,
    "snorkel": true,
    "parking": true,
    "drive": 38,
    "slug": "plage-de-la-caravelle"
  },
  {
    "id": "gp010",
    "island": "gp",
    "name": "Plage de Sainte-Anne",
    "commune": "Sainte-Anne",
    "lat": 16.2226,
    "lng": -61.3828,
    "status": "clean",
    "afai": 0.22,
    "kids": true,
    "snorkel": false,
    "parking": true,
    "drive": 38,
    "slug": "plage-de-sainte-anne",
    "webcam": {
      "type": "link",
      "url": "https://www.skylinewebcams.com/en/webcam/guadeloupe/guadeloupe/pointe-a-pitre/sainte-anne.html",
      "label": "Sainte-Anne",
      "provider": "SkylineWebcams"
    }
  },
  {
    "id": "gp011",
    "island": "gp",
    "name": "Anse Kahouanne",
    "commune": "Saint-François",
    "lat": 16.2526126,
    "lng": -61.22303,
    "status": "clean",
    "afai": 0.2,
    "kids": true,
    "snorkel": false,
    "parking": false,
    "drive": 30,
    "slug": "anse-kahouanne"
  },
  {
    "id": "gp012",
    "island": "gp",
    "name": "Plage du Gosier",
    "commune": "Le Gosier",
    "lat": 16.205254,
    "lng": -61.4430474,
    "status": "clean",
    "afai": 0.18,
    "kids": true,
    "snorkel": true,
    "parking": true,
    "drive": 12,
    "slug": "plage-du-gosier"
  },
  {
    "id": "gp013",
    "island": "gp",
    "name": "Petit-Havre (Gosier)",
    "commune": "Le Gosier",
    "lat": 16.2093046,
    "lng": -61.4257696,
    "status": "clean",
    "afai": 0.2,
    "kids": true,
    "snorkel": false,
    "parking": false,
    "drive": 30,
    "slug": "petit-havre-gosier"
  },
  {
    "id": "gp014",
    "island": "gp",
    "name": "Plage de Bas-du-Fort",
    "commune": "Pointe-à-Pitre",
    "lat": 16.2140114,
    "lng": -61.5237064,
    "status": "moderate",
    "afai": 0.35,
    "kids": true,
    "snorkel": false,
    "parking": true,
    "drive": 8,
    "slug": "plage-de-bas-du-fort"
  },
  {
    "id": "gp015",
    "island": "gp",
    "name": "Porte d'Enfer",
    "commune": "Anse-Bertrand",
    "lat": 16.4861861,
    "lng": -61.4416828,
    "status": "avoid",
    "afai": 0.7,
    "kids": false,
    "snorkel": false,
    "parking": true,
    "drive": 55,
    "slug": "porte-d-enfer"
  },
  {
    "id": "gp016",
    "island": "gp",
    "name": "Anse Laborde",
    "commune": "Anse-Bertrand",
    "lat": 16.4840401,
    "lng": -61.5014268,
    "status": "clean",
    "afai": 0.2,
    "kids": true,
    "snorkel": false,
    "parking": false,
    "drive": 30,
    "slug": "anse-laborde"
  },
  {
    "id": "gp017",
    "island": "gp",
    "name": "Plage du Souffleur",
    "commune": "Le Moule",
    "lat": 16.4222,
    "lng": -61.5337,
    "status": "moderate",
    "afai": 0.44,
    "kids": false,
    "snorkel": false,
    "parking": true,
    "drive": 42,
    "slug": "plage-du-souffleur"
  },
  {
    "id": "gp018",
    "island": "gp",
    "name": "Plage de Petit-Bourg",
    "commune": "Petit-Bourg",
    "lat": 16.1649476,
    "lng": -61.5842398,
    "status": "clean",
    "afai": 0.2,
    "kids": true,
    "snorkel": false,
    "parking": false,
    "drive": 30,
    "slug": "plage-de-petit-bourg"
  },
  {
    "id": "gp019",
    "island": "gp",
    "name": "Plage de La Désirade",
    "commune": "La Désirade",
    "lat": 16.2938849,
    "lng": -61.0937489,
    "status": "clean",
    "afai": 0.2,
    "kids": true,
    "snorkel": false,
    "parking": false,
    "drive": 30,
    "slug": "plage-de-la-desirade"
  },
  {
    "id": "gp020",
    "island": "gp",
    "name": "Anse-Bertrand Nord",
    "commune": "Anse-Bertrand",
    "lat": 16.4856804,
    "lng": -61.4973785,
    "status": "clean",
    "afai": 0.2,
    "kids": true,
    "snorkel": false,
    "parking": false,
    "drive": 30,
    "slug": "anse-bertrand-nord"
  },
  {
    "id": "gp021",
    "island": "gp",
    "name": "Plage de Grande Anse",
    "commune": "Trois-Rivières",
    "lat": 15.9589717,
    "lng": -61.6719389,
    "status": "clean",
    "afai": 0.15,
    "kids": true,
    "snorkel": true,
    "parking": true,
    "drive": 45,
    "slug": "plage-de-grande-anse"
  },
  {
    "id": "gp023",
    "island": "gp",
    "name": "Anse à la Barque (Ste-Anne)",
    "commune": "Sainte-Anne",
    "lat": 16.2438293,
    "lng": -61.3243047,
    "status": "clean",
    "afai": 0.2,
    "kids": true,
    "snorkel": false,
    "parking": false,
    "drive": 30,
    "slug": "anse-a-la-barque-ste-anne"
  },
  {
    "id": "gp024",
    "island": "gp",
    "name": "Plage de Deshaies",
    "commune": "Deshaies",
    "lat": 16.3053509,
    "lng": -61.7950711,
    "status": "clean",
    "afai": 0.11,
    "kids": true,
    "snorkel": true,
    "parking": true,
    "drive": 55,
    "slug": "plage-de-deshaies"
  },
  {
    "id": "gp025",
    "island": "gp",
    "name": "La Grande Anse (Deshaies)",
    "commune": "Deshaies",
    "lat": 15.863176,
    "lng": -61.5777867,
    "status": "clean",
    "afai": 0.1,
    "kids": true,
    "snorkel": true,
    "parking": true,
    "drive": 56,
    "slug": "la-grande-anse-deshaies"
  },
  {
    "id": "gp026",
    "island": "gp",
    "name": "Plage de la Verdure",
    "commune": "Le Gosier",
    "lat": 16.2054591,
    "lng": -61.5000744,
    "status": "clean",
    "afai": 0.2,
    "kids": true,
    "snorkel": false,
    "parking": false,
    "drive": 30,
    "slug": "plage-de-la-verdure"
  },
  {
    "id": "gp027",
    "island": "gp",
    "name": "Plage de Clugny",
    "commune": "Sainte-Rose",
    "lat": 16.3544093,
    "lng": -61.7529087,
    "status": "clean",
    "afai": 0.2,
    "kids": true,
    "snorkel": false,
    "parking": false,
    "drive": 30,
    "slug": "plage-de-clugny"
  },
  {
    "id": "gp028",
    "island": "gp",
    "name": "Plage de Nogent",
    "commune": "Sainte-Rose",
    "lat": 16.3450735,
    "lng": -61.7173643,
    "status": "clean",
    "afai": 0.2,
    "kids": true,
    "snorkel": false,
    "parking": false,
    "drive": 30,
    "slug": "plage-de-nogent"
  },
  {
    "id": "gp029",
    "island": "gp",
    "name": "Plage de Baille-Argent",
    "commune": "Pointe-Noire",
    "lat": 16.2354834,
    "lng": -61.7923244,
    "status": "clean",
    "afai": 0.2,
    "kids": true,
    "snorkel": false,
    "parking": false,
    "drive": 30,
    "slug": "plage-de-baille-argent"
  },
  {
    "id": "gp031",
    "island": "gp",
    "name": "Plage de Malendure",
    "commune": "Bouillante",
    "lat": 16.1720515,
    "lng": -61.7767401,
    "status": "clean",
    "afai": 0.12,
    "kids": true,
    "snorkel": true,
    "parking": true,
    "drive": 42,
    "slug": "plage-de-malendure"
  },
  {
    "id": "gp032",
    "island": "gp",
    "name": "Anse à Sable",
    "commune": "Bouillante",
    "lat": 16.1483668,
    "lng": -61.7751493,
    "status": "clean",
    "afai": 0.2,
    "kids": true,
    "snorkel": false,
    "parking": false,
    "drive": 30,
    "slug": "anse-a-sable"
  },
  {
    "id": "gp033",
    "island": "gp",
    "name": "Petite Plage Malendure",
    "commune": "Bouillante",
    "lat": 16.1745666,
    "lng": -61.7830924,
    "status": "clean",
    "afai": 0.11,
    "kids": true,
    "snorkel": true,
    "parking": true,
    "drive": 42,
    "slug": "petite-plage-malendure"
  },
  {
    "id": "gp036",
    "island": "gp",
    "name": "Plage des Amandiers",
    "commune": "Bouillante",
    "lat": 16.3515936,
    "lng": -61.723192,
    "status": "clean",
    "afai": 0.2,
    "kids": true,
    "snorkel": false,
    "parking": false,
    "drive": 30,
    "slug": "plage-des-amandiers"
  },
  {
    "id": "gp038",
    "island": "gp",
    "name": "Plage de Capesterre-Belle-Eau",
    "commune": "Capesterre-Belle-Eau",
    "lat": 16.0931635,
    "lng": -61.559275,
    "status": "clean",
    "afai": 0.2,
    "kids": true,
    "snorkel": false,
    "parking": false,
    "drive": 30,
    "slug": "plage-de-capesterre-belle-eau"
  },
  {
    "id": "gp040",
    "island": "gp",
    "name": "Plage de Capesterre (MG)",
    "commune": "Capesterre-de-Marie-Galante",
    "lat": 15.8858408,
    "lng": -61.2261838,
    "status": "clean",
    "afai": 0.2,
    "kids": true,
    "snorkel": false,
    "parking": false,
    "drive": 30,
    "slug": "plage-de-capesterre-mg"
  },
  {
    "id": "gp041",
    "island": "gp",
    "name": "Plage de Grand-Bourg",
    "commune": "Grand-Bourg",
    "lat": 15.8789306,
    "lng": -61.3089004,
    "status": "clean",
    "afai": 0.2,
    "kids": true,
    "snorkel": false,
    "parking": false,
    "drive": 30,
    "slug": "plage-de-grand-bourg"
  },
  {
    "id": "gp042",
    "island": "gp",
    "name": "Plage du Vieux-Fort",
    "commune": "Sainte-Rose",
    "lat": 16.3552287,
    "lng": -61.7591678,
    "status": "clean",
    "afai": 0.2,
    "kids": true,
    "snorkel": false,
    "parking": false,
    "drive": 30,
    "slug": "plage-du-vieux-fort"
  },
  {
    "id": "gp043",
    "island": "gp",
    "name": "Anse Piton",
    "commune": "Saint-Louis",
    "lat": 15.9526203,
    "lng": -61.320184,
    "status": "clean",
    "afai": 0.2,
    "kids": true,
    "snorkel": false,
    "parking": false,
    "drive": 30,
    "slug": "anse-piton"
  },
  {
    "id": "gp044",
    "island": "gp",
    "name": "Plage de Pompierre",
    "commune": "Terre-de-Haut (Les Saintes)",
    "lat": 15.8721723,
    "lng": -61.5708634,
    "status": "clean",
    "afai": 0.08,
    "kids": true,
    "snorkel": true,
    "parking": false,
    "drive": 60,
    "slug": "plage-de-pompierre"
  },
  {
    "id": "gp045",
    "island": "gp",
    "name": "Plage Pain de Sucre",
    "commune": "Terre-de-Haut (Les Saintes)",
    "lat": 15.8635,
    "lng": -61.5988,
    "status": "clean",
    "afai": 0.07,
    "kids": true,
    "snorkel": true,
    "parking": false,
    "drive": 60,
    "slug": "plage-pain-de-sucre"
  },
  {
    "id": "gp046",
    "island": "gp",
    "name": "Anse Rodrigue",
    "commune": "Terre-de-Haut (Les Saintes)",
    "lat": 15.8761973,
    "lng": -61.5796963,
    "status": "clean",
    "afai": 0.2,
    "kids": true,
    "snorkel": false,
    "parking": false,
    "drive": 30,
    "slug": "anse-rodrigue"
  },
  {
    "id": "gp047",
    "island": "gp",
    "name": "Anse Mire",
    "commune": "Terre-de-Haut (Les Saintes)",
    "lat": 15.86462,
    "lng": -61.5848797,
    "status": "clean",
    "afai": 0.2,
    "kids": true,
    "snorkel": false,
    "parking": false,
    "drive": 30,
    "slug": "anse-mire"
  },
  {
    "id": "gp048",
    "island": "gp",
    "name": "Plage de Baie-Mahault (Désirade)",
    "commune": "La Désirade",
    "lat": 16.3029048,
    "lng": -61.0697215,
    "status": "clean",
    "afai": 0.2,
    "kids": true,
    "snorkel": false,
    "parking": false,
    "drive": 30,
    "slug": "plage-de-baie-mahault-desirade"
  },
  {
    "id": "gp049",
    "island": "gp",
    "name": "Le Souffleur (Désirade)",
    "commune": "La Désirade",
    "lat": 16.3103402,
    "lng": -61.0450143,
    "status": "clean",
    "afai": 0.2,
    "kids": true,
    "snorkel": false,
    "parking": false,
    "drive": 30,
    "slug": "le-souffleur-desirade"
  },
  {
    "id": "gp050",
    "island": "gp",
    "name": "L’Autre Bord",
    "commune": "Port-Louis",
    "lat": 16.329701,
    "lng": -61.3409379,
    "status": "clean",
    "afai": 0.2,
    "kids": true,
    "snorkel": false,
    "parking": false,
    "drive": 30,
    "slug": "l-autre-bord"
  },
  {
    "id": "gp051",
    "island": "gp",
    "name": "Saint-Félix",
    "commune": "Le Gosier",
    "lat": 16.3356823,
    "lng": -61.3586839,
    "status": "clean",
    "afai": 0.2,
    "kids": true,
    "snorkel": false,
    "parking": false,
    "drive": 30,
    "slug": "saint-felix"
  },
  {
    "id": "gp052",
    "island": "gp",
    "name": "Anse Champagne",
    "commune": "Sainte-Anne",
    "lat": 16.2414427,
    "lng": -61.3387307,
    "status": "clean",
    "afai": 0.2,
    "kids": true,
    "snorkel": false,
    "parking": false,
    "drive": 30,
    "slug": "anse-champagne"
  },
  {
    "id": "gp054",
    "island": "gp",
    "name": "Anse de la Baie Olive",
    "commune": "Saint-François",
    "lat": 16.2501895,
    "lng": -61.2802841,
    "status": "clean",
    "afai": 0.2,
    "kids": true,
    "snorkel": false,
    "parking": false,
    "drive": 30,
    "slug": "anse-de-la-baie-olive"
  },
  {
    "id": "gp057",
    "island": "gp",
    "name": "Anse de Pigeon",
    "commune": "Bouillante",
    "lat": 16.275477,
    "lng": -61.8045317,
    "status": "clean",
    "afai": 0.2,
    "kids": true,
    "snorkel": false,
    "parking": false,
    "drive": 30,
    "slug": "anse-de-pigeon"
  },
  {
    "id": "gp059",
    "island": "gp",
    "name": "Anse du Mancenillier",
    "commune": "Sainte-Anne",
    "lat": 16.2420878,
    "lng": -61.3059386,
    "status": "clean",
    "afai": 0.2,
    "kids": true,
    "snorkel": false,
    "parking": false,
    "drive": 30,
    "slug": "anse-du-mancenillier"
  },
  {
    "id": "gp060",
    "island": "gp",
    "name": "Plage de la Perle",
    "commune": "Deshaies",
    "lat": 16.3578828,
    "lng": -61.7358953,
    "status": "clean",
    "afai": 0.2,
    "kids": true,
    "snorkel": false,
    "parking": false,
    "drive": 30,
    "slug": "plage-de-la-perle"
  },
  {
    "id": "gp061",
    "island": "gp",
    "name": "Pointe de la Verdure",
    "commune": "Le Gosier",
    "lat": 16.1997493,
    "lng": -61.4915724,
    "status": "clean",
    "afai": 0.2,
    "kids": true,
    "snorkel": false,
    "parking": false,
    "drive": 30,
    "slug": "pointe-de-la-verdure"
  },
  {
    "id": "gp062",
    "island": "gp",
    "name": "Anse Canot (Marie-Galante)",
    "commune": "Saint-Louis",
    "lat": 15.9819535,
    "lng": -61.3057874,
    "status": "clean",
    "afai": 0.2,
    "kids": true,
    "snorkel": false,
    "parking": false,
    "drive": 30,
    "slug": "anse-canot-marie-galante"
  },
  {
    "id": "gp064",
    "island": "gp",
    "name": "Saint-Félix Sud",
    "commune": "Le Gosier",
    "lat": 16.1993365,
    "lng": -61.4698434,
    "status": "clean",
    "afai": 0.2,
    "kids": true,
    "snorkel": false,
    "parking": false,
    "drive": 30,
    "slug": "saint-felix-sud"
  },
  {
    "id": "gp066",
    "island": "gp",
    "name": "Plage de Fouillole",
    "commune": "Pointe-à-Pitre",
    "lat": 16.2186526,
    "lng": -61.5430846,
    "status": "clean",
    "afai": 0.2,
    "kids": true,
    "snorkel": false,
    "parking": false,
    "drive": 30,
    "slug": "plage-de-fouillole"
  },
  {
    "id": "gp068",
    "island": "gp",
    "name": "Anse Gros Sable",
    "commune": "Sainte-Anne",
    "lat": 16.2290921,
    "lng": -61.3721018,
    "status": "clean",
    "afai": 0.2,
    "kids": true,
    "snorkel": false,
    "parking": false,
    "drive": 30,
    "slug": "anse-gros-sable"
  },
  {
    "id": "gp069",
    "island": "gp",
    "name": "Petit-Havre Sud",
    "commune": "Le Gosier",
    "lat": 16.2105001,
    "lng": -61.4267446,
    "status": "clean",
    "afai": 0.2,
    "kids": true,
    "snorkel": false,
    "parking": false,
    "drive": 30,
    "slug": "petit-havre-sud"
  },
  {
    "id": "gp071",
    "island": "gp",
    "name": "Anse Sainte-Marguerite",
    "commune": "Saint-François",
    "lat": 16.2504456,
    "lng": -61.181366,
    "status": "clean",
    "afai": 0.2,
    "kids": true,
    "snorkel": false,
    "parking": false,
    "drive": 30,
    "slug": "anse-sainte-marguerite"
  },
  {
    "id": "gp072",
    "island": "gp",
    "name": "Les Salines (Saint-François)",
    "commune": "Saint-François",
    "lat": 16.2512974,
    "lng": -61.1862385,
    "status": "clean",
    "afai": 0.2,
    "kids": true,
    "snorkel": false,
    "parking": false,
    "drive": 30,
    "slug": "les-salines-saint-francois"
  },
  {
    "id": "gp073",
    "island": "gp",
    "name": "Anse à l’Eau",
    "commune": "Saint-François",
    "lat": 16.2506377,
    "lng": -61.2675518,
    "status": "clean",
    "afai": 0.2,
    "kids": true,
    "snorkel": false,
    "parking": false,
    "drive": 30,
    "slug": "anse-a-l-eau"
  },
  {
    "id": "gp074",
    "island": "gp",
    "name": "Anse du Figuier (Saintes)",
    "commune": "Terre-de-Haut (Les Saintes)",
    "lat": 15.8577736,
    "lng": -61.6030399,
    "status": "clean",
    "afai": 0.2,
    "kids": true,
    "snorkel": false,
    "parking": false,
    "drive": 30,
    "slug": "anse-du-figuier-saintes"
  },
  {
    "id": "gp078",
    "island": "gp",
    "name": "Anse de Galet",
    "commune": "Petit-Canal",
    "lat": 16.4721758,
    "lng": -61.5109255,
    "status": "clean",
    "afai": 0.2,
    "kids": true,
    "snorkel": false,
    "parking": false,
    "drive": 30,
    "slug": "anse-de-galet"
  },
  {
    "id": "gp080",
    "island": "gp",
    "name": "Plage du Moule",
    "commune": "Le Moule",
    "lat": 16.4125789,
    "lng": -61.5329735,
    "status": "clean",
    "afai": 0.2,
    "kids": true,
    "snorkel": false,
    "parking": false,
    "drive": 30,
    "slug": "plage-du-moule"
  },
  {
    "id": "gp081",
    "island": "gp",
    "name": "Anse Crawen",
    "commune": "Terre-de-Haut (Les Saintes)",
    "lat": 15.8555027,
    "lng": -61.6204834,
    "status": "clean",
    "afai": 0.2,
    "kids": true,
    "snorkel": false,
    "parking": false,
    "drive": 30,
    "slug": "anse-crawen"
  },
  {
    "id": "gp083",
    "island": "gp",
    "name": "Anse à la Barque (VH)",
    "commune": "Vieux-Habitants",
    "lat": 16.0272932,
    "lng": -61.7483834,
    "status": "clean",
    "afai": 0.2,
    "kids": true,
    "snorkel": false,
    "parking": false,
    "drive": 30,
    "slug": "anse-a-la-barque-vh"
  },
  {
    "id": "gp084",
    "island": "gp",
    "name": "Plage de Bananier",
    "commune": "Basse-Terre",
    "lat": 15.9809237,
    "lng": -61.7158019,
    "status": "clean",
    "afai": 0.2,
    "kids": true,
    "snorkel": false,
    "parking": false,
    "drive": 30,
    "slug": "plage-de-bananier"
  },
  {
    "id": "gp087",
    "island": "gp",
    "name": "Anse Turlet",
    "commune": "Vieux-Habitants",
    "lat": 16.0402721,
    "lng": -61.7549166,
    "status": "clean",
    "afai": 0.2,
    "kids": true,
    "snorkel": false,
    "parking": false,
    "drive": 30,
    "slug": "anse-turlet"
  },
  {
    "id": "gp088",
    "island": "gp",
    "name": "Anse du Bourg (Saintes)",
    "commune": "Terre-de-Haut (Les Saintes)",
    "lat": 15.8732946,
    "lng": -61.5786862,
    "status": "clean",
    "afai": 0.2,
    "kids": true,
    "snorkel": false,
    "parking": false,
    "drive": 30,
    "slug": "anse-du-bourg-saintes"
  },
  {
    "id": "gp093",
    "island": "gp",
    "name": "Plage de Cluny Nord",
    "commune": "Sainte-Rose",
    "lat": 16.2956554,
    "lng": -61.8023301,
    "status": "clean",
    "afai": 0.2,
    "kids": true,
    "snorkel": false,
    "parking": false,
    "drive": 30,
    "slug": "plage-de-cluny-nord"
  },
  {
    "id": "gp094",
    "island": "gp",
    "name": "Plage de Tillet",
    "commune": "Sainte-Rose",
    "lat": 16.3212415,
    "lng": -61.7918821,
    "status": "clean",
    "afai": 0.2,
    "kids": true,
    "snorkel": false,
    "parking": false,
    "drive": 30,
    "slug": "plage-de-tillet"
  },
  {
    "id": "gp096",
    "island": "gp",
    "name": "Grand Baie",
    "commune": "Le Gosier",
    "lat": 16.2122767,
    "lng": -61.5075236,
    "status": "clean",
    "afai": 0.2,
    "kids": true,
    "snorkel": false,
    "parking": false,
    "drive": 30,
    "slug": "grand-baie"
  },
  {
    "id": "gp097",
    "island": "gp",
    "name": "Grand Baie Sud",
    "commune": "Le Gosier",
    "lat": 16.2058352,
    "lng": -61.5042124,
    "status": "clean",
    "afai": 0.2,
    "kids": true,
    "snorkel": false,
    "parking": false,
    "drive": 30,
    "slug": "grand-baie-sud"
  },
  {
    "id": "gp099",
    "island": "gp",
    "name": "Plage de Bas-du-Fort Sud",
    "commune": "Le Gosier",
    "lat": 16.2163816,
    "lng": -61.5274862,
    "status": "clean",
    "afai": 0.2,
    "kids": true,
    "snorkel": false,
    "parking": false,
    "drive": 30,
    "slug": "plage-de-bas-du-fort-sud"
  },
  {
    "id": "gp100",
    "island": "gp",
    "name": "Plage de Moustique",
    "commune": "Saint-Louis",
    "lat": 15.9780289,
    "lng": -61.3113527,
    "status": "clean",
    "afai": 0.2,
    "kids": true,
    "snorkel": false,
    "parking": false,
    "drive": 30,
    "slug": "plage-de-moustique"
  },
  {
    "id": "gp101",
    "island": "gp",
    "name": "Vieux-Fort (Sainte-Rose)",
    "commune": "Sainte-Rose",
    "lat": 15.85904,
    "lng": -61.5883611,
    "status": "clean",
    "afai": 0.2,
    "kids": true,
    "snorkel": false,
    "parking": false,
    "drive": 30,
    "slug": "vieux-fort-sainte-rose"
  },
  {
    "id": "gp103",
    "island": "gp",
    "name": "Gros Cap",
    "commune": "Sainte-Rose",
    "lat": 16.353999,
    "lng": -61.7633517,
    "status": "clean",
    "afai": 0.2,
    "kids": true,
    "snorkel": false,
    "parking": false,
    "drive": 30,
    "slug": "gros-cap"
  },
  {
    "id": "gp104",
    "island": "gp",
    "name": "La Feuillère",
    "commune": "Terre-de-Bas (Les Saintes)",
    "lat": 15.8579651,
    "lng": -61.579543,
    "status": "clean",
    "afai": 0.2,
    "kids": true,
    "snorkel": false,
    "parking": false,
    "drive": 30,
    "slug": "la-feuillere"
  },
  {
    "id": "gp108",
    "island": "gp",
    "name": "Plage du Manganao",
    "commune": "Sainte-Anne",
    "lat": 16.2444357,
    "lng": -61.2931382,
    "status": "clean",
    "afai": 0.2,
    "kids": true,
    "snorkel": false,
    "parking": false,
    "drive": 30,
    "slug": "plage-du-manganao"
  },
  {
    "id": "gp110",
    "island": "gp",
    "name": "Pointe de la Verdure Sud",
    "commune": "Le Gosier",
    "lat": 16.2418431,
    "lng": -61.3276049,
    "status": "clean",
    "afai": 0.2,
    "kids": true,
    "snorkel": false,
    "parking": false,
    "drive": 30,
    "slug": "pointe-de-la-verdure-sud"
  },
  {
    "id": "gp113",
    "island": "gp",
    "name": "Plage de Sainte-Claire",
    "commune": "Le Gosier",
    "lat": 16.2679105,
    "lng": -61.8058351,
    "status": "clean",
    "afai": 0.2,
    "kids": true,
    "snorkel": false,
    "parking": false,
    "drive": 30,
    "slug": "plage-de-sainte-claire"
  },
  {
    "id": "gp115",
    "island": "gp",
    "name": "Anse de Vieux-Fort (MG)",
    "commune": "Saint-Louis",
    "lat": 15.9493507,
    "lng": -61.3233611,
    "status": "clean",
    "afai": 0.2,
    "kids": true,
    "snorkel": false,
    "parking": false,
    "drive": 30,
    "slug": "anse-de-vieux-fort-mg"
  },
  {
    "id": "gp116",
    "island": "gp",
    "name": "Plage de Babin",
    "commune": "Le Moule",
    "lat": 16.3410517,
    "lng": -61.5265237,
    "status": "clean",
    "afai": 0.2,
    "kids": true,
    "snorkel": false,
    "parking": false,
    "drive": 30,
    "slug": "plage-de-babin"
  },
  {
    "id": "gp118",
    "island": "gp",
    "name": "Plage de La Désirade Sud",
    "commune": "La Désirade",
    "lat": 15.9111055,
    "lng": -61.1998476,
    "status": "clean",
    "afai": 0.2,
    "kids": true,
    "snorkel": false,
    "parking": false,
    "drive": 30,
    "slug": "plage-de-la-desirade-sud"
  },
  {
    "id": "gp119",
    "island": "gp",
    "name": "Grande Anse (Désirade)",
    "commune": "La Désirade",
    "lat": 15.9323909,
    "lng": -61.1964738,
    "status": "clean",
    "afai": 0.2,
    "kids": true,
    "snorkel": false,
    "parking": false,
    "drive": 30,
    "slug": "grande-anse-desirade"
  },
  {
    "id": "gp120",
    "island": "gp",
    "name": "Île de la Petite Terre",
    "commune": "La Désirade",
    "lat": 16.1719,
    "lng": -61.115,
    "status": "moderate",
    "afai": 0.22,
    "kids": false,
    "snorkel": true,
    "parking": true,
    "drive": 45,
    "slug": "ile-de-la-petite-terre"
  },
  {
    "id": "mq067",
    "island": "mq",
    "name": "Pointe Fort (Caravelle)",
    "commune": "La Trinité",
    "lat": 14.7716,
    "lng": -60.8714,
    "status": "avoid",
    "afai": 0.48,
    "kids": false,
    "snorkel": false,
    "parking": false,
    "drive": 50,
    "slug": "pointe-fort-caravelle"
  }
]