[
  {
    "id": "mq001",
    "island": "mq",
    "name": "Plage des Salines",
    "commune": "Sainte-Anne",
    "lat": 14.3958521,
    "lng": -60.8689802,
    "status": "moderate",
    "afai": 0.42,
    "kids": true,
    "snorkel": false,
    "parking": true,
    "drive": 52
  },
  {
    "id": "mq002",
    "island": "mq",
    "name": "Anse Caritan",
    "commune": "Sainte-Anne",
    "lat": 14.4260922,
    "lng": -60.8876691,
    "status": "clean",
    "afai": 0.17,
    "kids": true,
    "snorkel": true,
    "parking": true,
    "drive": 48
  },
  {
    "id": "mq003",
    "island": "mq",
    "name": "Anse Meunier",
    "commune": "Sainte-Anne",
    "lat": 14.4144971,
    "lng": -60.8872148,
    "status": "clean",
    "afai": 0.12,
    "kids": true,
    "snorkel": true,
    "parking": false,
    "drive": 50
  },
  {
    "id": "mq004",
    "island": "mq",
    "name": "Plage du Bourg (Sainte-Anne)",
    "commune": "Sainte-Anne",
    "lat": 14.4304809,
    "lng": -60.8849519,
    "status": "moderate",
    "afai": 0.38,
    "kids": true,
    "snorkel": false,
    "parking": true,
    "drive": 48
  },
  {
    "id": "mq005",
    "island": "mq",
    "name": "Anse Trabaud",
    "commune": "Sainte-Anne",
    "lat": 14.4101296,
    "lng": -60.8482068,
    "status": "avoid",
    "afai": 0.78,
    "kids": false,
    "snorkel": false,
    "parking": true,
    "drive": 52
  },
  {
    "id": "mq006",
    "island": "mq",
    "name": "Anse Macabou",
    "commune": "Sainte-Anne",
    "lat": 14.505925,
    "lng": -60.8235499,
    "status": "avoid",
    "afai": 0.72,
    "kids": false,
    "snorkel": false,
    "parking": false,
    "drive": 55
  },
  {
    "id": "mq007",
    "island": "mq",
    "name": "Anse Michel",
    "commune": "Sainte-Anne",
    "lat": 14.437773,
    "lng": -60.8258012,
    "status": "clean",
    "afai": 0.15,
    "kids": true,
    "snorkel": true,
    "parking": true,
    "drive": 46
  },
  {
    "id": "mq008",
    "island": "mq",
    "name": "Plage du Marin",
    "commune": "Le Marin",
    "lat": 14.4511181,
    "lng": -60.8835717,
    "status": "clean",
    "afai": 0.18,
    "kids": true,
    "snorkel": false,
    "parking": true,
    "drive": 42
  },
  {
    "id": "mq009",
    "island": "mq",
    "name": "Anse Figuier",
    "commune": "Rivière-Pilote",
    "lat": 14.4605782,
    "lng": -60.9104676,
    "status": "moderate",
    "afai": 0.4,
    "kids": true,
    "snorkel": true,
    "parking": false,
    "drive": 40
  },
  {
    "id": "mq010",
    "island": "mq",
    "name": "Anse à l'Âne",
    "commune": "Les Trois-Îlets",
    "lat": 14.5410671,
    "lng": -61.0657633,
    "status": "clean",
    "afai": 0.14,
    "kids": true,
    "snorkel": false,
    "parking": true,
    "drive": 22
  },
  {
    "id": "mq011",
    "island": "mq",
    "name": "Anse Mitan",
    "commune": "Les Trois-Îlets",
    "lat": 14.5522593,
    "lng": -61.0552056,
    "status": "clean",
    "afai": 0.17,
    "kids": true,
    "snorkel": false,
    "parking": true,
    "drive": 18
  },
  {
    "id": "mq012",
    "island": "mq",
    "name": "Anse Noire",
    "commune": "Les Anses-d'Arlet",
    "lat": 14.5277232,
    "lng": -61.0873771,
    "status": "clean",
    "afai": 0.08,
    "kids": true,
    "snorkel": true,
    "parking": false,
    "drive": 28
  },
  {
    "id": "mq013",
    "island": "mq",
    "name": "Anse Dufour",
    "commune": "Les Anses-d'Arlet",
    "lat": 14.5256583,
    "lng": -61.08949844,
    "status": "clean",
    "afai": 0.11,
    "kids": true,
    "snorkel": true,
    "parking": false,
    "drive": 28
  },
  {
    "id": "mq014",
    "island": "mq",
    "name": "Grande Anse d'Arlet",
    "commune": "Les Anses-d'Arlet",
    "lat": 14.5027854,
    "lng": -61.0856311,
    "status": "clean",
    "afai": 0.12,
    "kids": true,
    "snorkel": true,
    "parking": true,
    "drive": 25
  },
  {
    "id": "mq015",
    "island": "mq",
    "name": "Petite Anse d'Arlet",
    "commune": "Les Anses-d'Arlet",
    "lat": 14.5027854,
    "lng": -61.0856311,
    "status": "clean",
    "afai": 0.1,
    "kids": true,
    "snorkel": true,
    "parking": false,
    "drive": 26
  },
  {
    "id": "mq016",
    "island": "mq",
    "name": "Plage du Diamant",
    "commune": "Le Diamant",
    "lat": 14.4758027,
    "lng": -61.0314046,
    "status": "moderate",
    "afai": 0.42,
    "kids": false,
    "snorkel": false,
    "parking": true,
    "drive": 32
  },
  {
    "id": "mq017",
    "island": "mq",
    "name": "Anse Cafard",
    "commune": "Le Diamant",
    "lat": 14.46926902,
    "lng": -61.04569643,
    "status": "moderate",
    "afai": 0.38,
    "kids": false,
    "snorkel": false,
    "parking": true,
    "drive": 33
  },
  {
    "id": "mq018",
    "island": "mq",
    "name": "Petite Anse du Diamant",
    "commune": "Le Diamant",
    "lat": 14.4758027,
    "lng": -61.0314046,
    "status": "moderate",
    "afai": 0.35,
    "kids": true,
    "snorkel": false,
    "parking": true,
    "drive": 31
  },
  {
    "id": "mq019",
    "island": "mq",
    "name": "Anse Gros Raisins",
    "commune": "Sainte-Luce",
    "lat": 14.4658147,
    "lng": -60.9260982,
    "status": "clean",
    "afai": 0.16,
    "kids": true,
    "snorkel": true,
    "parking": false,
    "drive": 38
  },
  {
    "id": "mq020",
    "island": "mq",
    "name": "Plage de Sainte-Luce",
    "commune": "Sainte-Luce",
    "lat": 14.46469668,
    "lng": -60.93956904,
    "status": "clean",
    "afai": 0.19,
    "kids": true,
    "snorkel": false,
    "parking": true,
    "drive": 36
  },
  {
    "id": "mq021",
    "island": "mq",
    "name": "Anse Corps de Garde",
    "commune": "Sainte-Luce",
    "lat": 14.4656037,
    "lng": -60.9423696,
    "status": "clean",
    "afai": 0.14,
    "kids": true,
    "snorkel": true,
    "parking": false,
    "drive": 39
  },
  {
    "id": "mq022",
    "island": "mq",
    "name": "Pointe Borgnesse",
    "commune": "Rivière-Pilote",
    "lat": 14.4533661,
    "lng": -60.90242566,
    "status": "moderate",
    "afai": 0.45,
    "kids": false,
    "snorkel": false,
    "parking": false,
    "drive": 42
  },
  {
    "id": "mq023",
    "island": "mq",
    "name": "Plage de la Française",
    "commune": "Fort-de-France",
    "lat": 14.6011133,
    "lng": -61.0674743,
    "status": "clean",
    "afai": 0.2,
    "kids": true,
    "snorkel": false,
    "parking": true,
    "drive": 8
  },
  {
    "id": "mq024",
    "island": "mq",
    "name": "Anse Madame",
    "commune": "Schoelcher",
    "lat": 14.6177983,
    "lng": -61.1036302,
    "status": "clean",
    "afai": 0.14,
    "kids": true,
    "snorkel": false,
    "parking": true,
    "drive": 12
  },
  {
    "id": "mq025",
    "island": "mq",
    "name": "Plage de Schœlcher",
    "commune": "Schœlcher",
    "lat": 14.6147915,
    "lng": -61.1010321,
    "status": "clean",
    "afai": 0.18,
    "kids": true,
    "snorkel": false,
    "parking": true,
    "drive": 10
  },
  {
    "id": "mq026",
    "island": "mq",
    "name": "Anse Collat",
    "commune": "Schœlcher",
    "lat": 14.62183945,
    "lng": -61.10756925,
    "status": "clean",
    "afai": 0.16,
    "kids": true,
    "snorkel": false,
    "parking": true,
    "drive": 11
  },
  {
    "id": "mq027",
    "island": "mq",
    "name": "Grande Anse du Carbet",
    "commune": "Le Carbet",
    "lat": 14.7126886,
    "lng": -61.1840442,
    "status": "clean",
    "afai": 0.12,
    "kids": true,
    "snorkel": true,
    "parking": true,
    "drive": 28
  },
  {
    "id": "mq028",
    "island": "mq",
    "name": "Anse Turin",
    "commune": "Le Carbet",
    "lat": 14.7278647,
    "lng": -61.1803843,
    "status": "clean",
    "afai": 0.1,
    "kids": true,
    "snorkel": true,
    "parking": true,
    "drive": 27
  },
  {
    "id": "mq029",
    "island": "mq",
    "name": "Plage de Saint-Pierre",
    "commune": "Saint-Pierre",
    "lat": 14.7404792,
    "lng": -61.1768484,
    "status": "clean",
    "afai": 0.15,
    "kids": true,
    "snorkel": true,
    "parking": true,
    "drive": 32
  },
  {
    "id": "mq030",
    "island": "mq",
    "name": "Anse Belleville",
    "commune": "Le Prêcheur",
    "lat": 14.8333961,
    "lng": -61.224677,
    "status": "clean",
    "afai": 0.11,
    "kids": false,
    "snorkel": false,
    "parking": false,
    "drive": 45
  },
  {
    "id": "gp001",
    "island": "gp",
    "name": "Plage de Saint-François",
    "commune": "Saint-François",
    "lat": 16.2521,
    "lng": -61.2644,
    "status": "moderate",
    "afai": 0.35,
    "kids": true,
    "snorkel": true,
    "parking": true,
    "drive": 48
  },
  {
    "id": "gp002",
    "island": "gp",
    "name": "Plage des Raisins Clairs",
    "commune": "Saint-François",
    "lat": 16.2469172,
    "lng": -61.2864305,
    "status": "clean",
    "afai": 0.22,
    "kids": true,
    "snorkel": true,
    "parking": true,
    "drive": 46
  },
  {
    "id": "gp003",
    "island": "gp",
    "name": "La Datcha",
    "commune": "Le Gosier",
    "lat": 16.2048,
    "lng": -61.4947,
    "status": "clean",
    "afai": 0.18,
    "kids": true,
    "snorkel": false,
    "parking": true,
    "drive": 48
  },
  {
    "id": "gp004",
    "island": "gp",
    "name": "Anse à la Gourde",
    "commune": "Saint-François",
    "lat": 16.2597,
    "lng": -61.214,
    "status": "clean",
    "afai": 0.14,
    "kids": true,
    "snorkel": true,
    "parking": true,
    "drive": 50
  },
  {
    "id": "gp005",
    "island": "gp",
    "name": "Pointe des Châteaux",
    "commune": "Saint-François",
    "lat": 16.2531027,
    "lng": -61.2306694,
    "status": "moderate",
    "afai": 0.38,
    "kids": false,
    "snorkel": false,
    "parking": true,
    "drive": 52
  },
  {
    "id": "gp006",
    "island": "gp",
    "name": "Anse Tarare",
    "commune": "Saint-François",
    "lat": 16.2564,
    "lng": -61.1986,
    "status": "clean",
    "afai": 0.12,
    "kids": false,
    "snorkel": true,
    "parking": false,
    "drive": 51
  },
  {
    "id": "gp008",
    "island": "gp",
    "name": "Plage Bois Jolan",
    "commune": "Sainte-Anne",
    "lat": 16.2373343,
    "lng": -61.3491006,
    "status": "clean",
    "afai": 0.2,
    "kids": true,
    "snorkel": false,
    "parking": true,
    "drive": 38
  },
  {
    "id": "gp009",
    "island": "gp",
    "name": "Plage de la Caravelle",
    "commune": "Sainte-Anne",
    "lat": 16.2181,
    "lng": -61.3965,
    "status": "clean",
    "afai": 0.14,
    "kids": true,
    "snorkel": true,
    "parking": true,
    "drive": 38
  },
  {
    "id": "gp010",
    "island": "gp",
    "name": "Plage de Sainte-Anne",
    "commune": "Sainte-Anne",
    "lat": 16.2226,
    "lng": -61.3828,
    "status": "clean",
    "afai": 0.22,
    "kids": true,
    "snorkel": false,
    "parking": true,
    "drive": 38
  },
  {
    "id": "gp012",
    "island": "gp",
    "name": "Plage du Gosier",
    "commune": "Le Gosier",
    "lat": 16.2048,
    "lng": -61.4948,
    "status": "clean",
    "afai": 0.18,
    "kids": true,
    "snorkel": true,
    "parking": true,
    "drive": 12
  },
  {
    "id": "gp014",
    "island": "gp",
    "name": "Plage de Bas-du-Fort",
    "commune": "Pointe-à-Pitre",
    "lat": 16.2140114,
    "lng": -61.5237064,
    "status": "moderate",
    "afai": 0.35,
    "kids": true,
    "snorkel": false,
    "parking": true,
    "drive": 8
  },
  {
    "id": "gp015",
    "island": "gp",
    "name": "Porte d'Enfer",
    "commune": "Anse-Bertrand",
    "lat": 16.4861861,
    "lng": -61.4416828,
    "status": "avoid",
    "afai": 0.7,
    "kids": false,
    "snorkel": false,
    "parking": true,
    "drive": 55
  },
  {
    "id": "gp017",
    "island": "gp",
    "name": "Plage du Souffleur",
    "commune": "Le Moule",
    "lat": 16.4222,
    "lng": -61.5337,
    "status": "moderate",
    "afai": 0.44,
    "kids": false,
    "snorkel": false,
    "parking": true,
    "drive": 42
  },
  {
    "id": "gp021",
    "island": "gp",
    "name": "Plage de Grande Anse",
    "commune": "Trois-Rivières",
    "lat": 15.9589717,
    "lng": -61.6719389,
    "status": "clean",
    "afai": 0.15,
    "kids": true,
    "snorkel": true,
    "parking": true,
    "drive": 45
  },
  {
    "id": "gp024",
    "island": "gp",
    "name": "Plage de Deshaies",
    "commune": "Deshaies",
    "lat": 16.3053509,
    "lng": -61.7950711,
    "status": "clean",
    "afai": 0.11,
    "kids": true,
    "snorkel": true,
    "parking": true,
    "drive": 55
  },
  {
    "id": "gp025",
    "island": "gp",
    "name": "La Grande Anse (Deshaies)",
    "commune": "Deshaies",
    "lat": 15.863176,
    "lng": -61.5777867,
    "status": "clean",
    "afai": 0.1,
    "kids": true,
    "snorkel": true,
    "parking": true,
    "drive": 56
  },
  {
    "id": "gp031",
    "island": "gp",
    "name": "Plage de Malendure",
    "commune": "Bouillante",
    "lat": 16.1721,
    "lng": -61.7767,
    "status": "clean",
    "afai": 0.12,
    "kids": true,
    "snorkel": true,
    "parking": true,
    "drive": 42
  },
  {
    "id": "gp033",
    "island": "gp",
    "name": "Petite Plage Malendure",
    "commune": "Bouillante",
    "lat": 16.1720515,
    "lng": -61.7767401,
    "status": "clean",
    "afai": 0.11,
    "kids": true,
    "snorkel": true,
    "parking": true,
    "drive": 42
  },
  {
    "id": "gp044",
    "island": "gp",
    "name": "Plage de Pompierre",
    "commune": "Terre-de-Haut (Les Saintes)",
    "lat": 15.8721723,
    "lng": -61.5708634,
    "status": "clean",
    "afai": 0.08,
    "kids": true,
    "snorkel": true,
    "parking": false,
    "drive": 60
  },
  {
    "id": "gp045",
    "island": "gp",
    "name": "Plage Pain de Sucre",
    "commune": "Terre-de-Haut (Les Saintes)",
    "lat": 15.8635,
    "lng": -61.5988,
    "status": "clean",
    "afai": 0.07,
    "kids": true,
    "snorkel": true,
    "parking": false,
    "drive": 60
  }
]